[INFO_|12/06 00:34:33|OSTools.printMemoryUsage:444] Memory-K: max=1818624, total=118912, free=95073, used=23839
[INFO_|12/06 00:34:33|BasicPrivateLabelLoader.printInfo:365] Not a 'Track/Service' servlet
[INFO_|12/06 00:34:33|DCServerFactory._startupInit:1313] Loading only DCServer name: w-gprmc
[WARN_|12/06 00:34:33|DCServerFactory._loadDCServerXML:622] DCServerConfig XML file not found: dcserver_w-gprmc.xml
[INFO_|12/06 00:34:33|DCServerFactory._loadDCServerXML:629] DCServerConfig XML file not loaded: /usr/share/tomcat7/webapps/gprmc/WEB-INF/dcservers.xml
[INFO_|12/06 00:34:33|RTConfigContextListener.contextInitialized:211] java.awt.headless=false
[INFO_|12/06 00:34:39|Data.logInfo:1077] gprmc: -------------------------------------------------------------------
[INFO_|12/06 00:34:39|Data.logInfo:1077] gprmc: Version             : 1.2.5
[INFO_|12/06 00:34:39|Data.logInfo:1077] gprmc: Default AccountID   : gprmc        [gprmc.defaultAccountID]
[INFO_|12/06 00:34:39|Data.logInfo:1077] gprmc: Minimum speed (km/h): 4.0          [gprmc.minimumSpeedKPH]
[INFO_|12/06 00:34:39|Data.logInfo:1077] gprmc: Simulate Geozones   : false        [gprmc.simulateGeozones]
[INFO_|12/06 00:34:39|Data.logInfo:1077] gprmc: Estimate Odometer   : false        [gprmc.estimateOdometer]
[INFO_|12/06 00:34:39|Data.logInfo:1077] gprmc: Date Format         : YMD          [gprmc.dateFormat]
[INFO_|12/06 00:34:39|Data.logInfo:1077] gprmc: UniqueID parameter  : &id=         [gprmc.parm.unique]
[INFO_|12/06 00:34:39|Data.logInfo:1077] gprmc: Account parameter   : &acct=       [gprmc.parm.account]
[INFO_|12/06 00:34:39|Data.logInfo:1077] gprmc: Device parameter    : &dev=        [gprmc.parm.device]
[INFO_|12/06 00:34:39|Data.logInfo:1077] gprmc: Status parameter    : &code=       [gprmc.parm.status]
[INFO_|12/06 00:34:39|Data.logInfo:1077] gprmc: $GPRMC parameter    : &gprmc=      [gprmc.parm.gprmc]
[INFO_|12/06 00:34:39|Data.logInfo:1077] gprmc: Date parameter      : &date=       [gprmc.parm.date]
[INFO_|12/06 00:34:39|Data.logInfo:1077] gprmc: Time parameter      : &time=       [gprmc.parm.time]
[INFO_|12/06 00:34:39|Data.logInfo:1077] gprmc: Latitude parameter  : &lat=        [gprmc.parm.latitude]
[INFO_|12/06 00:34:39|Data.logInfo:1077] gprmc: Longitude parameter : &lon=        [gprmc.parm.longitude]
[INFO_|12/06 00:34:39|Data.logInfo:1077] gprmc: SpeedKPH parameter  : &speed=      [gprmc.parm.speed]
[INFO_|12/06 00:34:39|Data.logInfo:1077] gprmc: Heading parameter   : &head=       [gprmc.parm.heading]
[INFO_|12/06 00:34:39|Data.logInfo:1077] gprmc: Altitude parameter  : &alt=        [gprmc.parm.altitude]
[INFO_|12/06 00:34:39|Data.logInfo:1077] gprmc: Odometer parameter  : &odom=       [gprmc.parm.odometer]
[INFO_|12/06 00:34:39|Data.logInfo:1077] gprmc: Address parameter   : &addr=       [gprmc.parm.address]
[INFO_|12/06 00:34:39|Data.logInfo:1077] gprmc: Driver parameter    : &drv=        [gprmc.parm.driver]
[INFO_|12/06 00:34:39|Data.logInfo:1077] gprmc: Message parameter   : &msg=        [gprmc.parm.message]
[INFO_|12/06 00:34:39|Data.logInfo:1077] gprmc: -------------------------------------------------------------------
[INFO_|12/06 00:34:39|Data.logInfo:1077] gprmc: [77.103.2.211] GET: http://www.0-one.net:8080/gprmc/Data id=123456789012345&code=0xF020&gprmc=$GPRMC,080701.00,A,3128.7540,N,14257.6714,W,000.0,000.0,180707,,,A*1
[WARN_|12/06 00:34:39|Data.logWarn:1082] gprmc: Unique ID not found!: gprmc_123456789012345
[INFO_|12/06 00:35:12|Data.logInfo:1077] gprmc: [77.103.2.211] POST: http://gps.0-one.net:8080/gprmc/Data acct=O-one&dev=test01&gprmc=$GPRMC,233506,A,3128.7540,N,14257.6714,W,000.0,000.0,051211,,*7 [acct=O-one&dev=test01&gprmc=$GPRMC,233506,A,3128.7540,N,14257.6714,W,000.0,000.0,051211,,*7]
[ERROR|12/06 00:35:12|Transport.loadDeviceByTransportID:1615] Account is null (not found/defined?)!
[ERROR|12/06 00:35:12|Data.logError:1090] gprmc: Device not found AccountID/DeviceID: O-one/test01
[INFO_|12/06 00:35:20|Data.logInfo:1077] gprmc: [77.103.2.211] POST: http://gps.0-one.net:8080/gprmc/Data acct=O-one&dev=test01&gprmc=$GPRMC,233514,A,3128.7540,N,14257.6714,W,000.0,000.0,051211,,*4 [acct=O-one&dev=test01&gprmc=$GPRMC,233514,A,3128.7540,N,14257.6714,W,000.0,000.0,051211,,*4]
[ERROR|12/06 00:35:20|Transport.loadDeviceByTransportID:1615] Account is null (not found/defined?)!
[ERROR|12/06 00:35:20|Data.logError:1090] gprmc: Device not found AccountID/DeviceID: O-one/test01
[INFO_|12/06 00:35:41|Data.logInfo:1077] gprmc: [77.103.2.211] GET: http://www.0-one.net:8080/gprmc/Data id=123456789012345&code=0xF020&gprmc=$GPRMC,080701.00,A,3128.7540,N,14257.6714,W,000.0,000.0,180707,,,A*1
[WARN_|12/06 00:35:41|Data.logWarn:1082] gprmc: Unique ID not found!: gprmc_123456789012345
[INFO_|12/06 00:35:53|Data.logInfo:1077] gprmc: [77.103.2.211] POST: http://gps.0-one.net:8080/gprmc/Data acct=O-one&dev=test01&gprmc=$GPRMC,233547,A,3128.7540,N,14257.6714,W,000.0,000.0,051211,,*2 [acct=O-one&dev=test01&gprmc=$GPRMC,233547,A,3128.7540,N,14257.6714,W,000.0,000.0,051211,,*2]
[ERROR|12/06 00:35:53|Transport.loadDeviceByTransportID:1615] Account is null (not found/defined?)!
[ERROR|12/06 00:35:53|Data.logError:1090] gprmc: Device not found AccountID/DeviceID: O-one/test01
[INFO_|12/06 00:36:55|Data.logInfo:1077] gprmc: [77.103.2.211] POST: http://gps.0-one.net:8080/gprmc/Data acct=O-one&dev=test01&gprmc=$GPRMC,233649,A,3128.7540,N,14257.6714,W,000.0,000.0,051211,,*f [acct=O-one&dev=test01&gprmc=$GPRMC,233649,A,3128.7540,N,14257.6714,W,000.0,000.0,051211,,*f]
[ERROR|12/06 00:36:55|Transport.loadDeviceByTransportID:1615] Account is null (not found/defined?)!
[ERROR|12/06 00:36:55|Data.logError:1090] gprmc: Device not found AccountID/DeviceID: O-one/test01
[INFO_|12/06 00:38:34|Data.logInfo:1077] gprmc: [77.103.2.211] POST: http://gps.0-one.net:8080/gprmc/Data acct=okouam&dev=test01&gprmc=$GPRMC,233828,A,3128.7540,N,14257.6714,W,000.0,000.0,051211,,*6 [acct=okouam&dev=test01&gprmc=$GPRMC,233828,A,3128.7540,N,14257.6714,W,000.0,000.0,051211,,*6]
[ERROR|12/06 00:38:34|Transport.loadDeviceByTransportID:1615] Account is null (not found/defined?)!
[ERROR|12/06 00:38:34|Data.logError:1090] gprmc: Device not found AccountID/DeviceID: okouam/test01
[INFO_|12/06 00:40:37|Data.logInfo:1077] gprmc: [77.103.2.211] GET: http://www.0-one.net:8080/gprmc/Data id=1234567890f12345&code=0xF020&gprmc=$GPRMC,080701.00,A,3128.7540,N,14257.6714,W,000.0,000.0,180707,,,A*1
[WARN_|12/06 00:40:37|Data.logWarn:1082] gprmc: Unique ID not found!: gprmc_1234567890f12345
[INFO_|12/06 00:44:34|Data.logInfo:1077] gprmc: [77.103.2.211] POST: http://gps.0-one.net:8080/gprmc/Data acct=admin&dev=test01&gprmc=$GPRMC,234428,A,3128.7540,N,14257.6714,W,000.0,000.0,051211,,*d [acct=admin&dev=test01&gprmc=$GPRMC,234428,A,3128.7540,N,14257.6714,W,000.0,000.0,051211,,*d]
[INFO_|12/06 00:44:34|Transport.loadDeviceByTransportID:1649] Located Device 'admin/test01' (using default Device transport)
[INFO_|12/06 00:44:34|EventData.updateAddress:1920] [Account 'admin'] PrivateLabel '*' does not define a ReverseGeocodeProvider
[INFO_|12/06 00:45:09|Data.logInfo:1077] gprmc: [77.103.2.211] POST: http://gps.0-one.net:8080/gprmc/Data acct=admin&dev=test01&gprmc=$GPRMC,234503,A,3128.7540,N,14257.6714,W,000.0,000.0,051211,,*5 [acct=admin&dev=test01&gprmc=$GPRMC,234503,A,3128.7540,N,14257.6714,W,000.0,000.0,051211,,*5]
[INFO_|12/06 00:45:09|Transport.loadDeviceByTransportID:1649] Located Device 'admin/test01' (using default Device transport)
[INFO_|12/06 00:45:09|EventData.updateAddress:1920] [Account 'admin'] PrivateLabel '*' does not define a ReverseGeocodeProvider
[INFO_|12/06 00:55:01|Data.logInfo:1077] gprmc: [77.103.2.211] POST: http://gps.0-one.net:8080/gprmc/Data acct=admin&dev=test01&gprmc=$GPRMC,235455,A,5134.1725,N,00006.7744,E,000.0,000.0,051211,,*1f [acct=admin&dev=test01&gprmc=$GPRMC,235455,A,5134.1725,N,00006.7744,E,000.0,000.0,051211,,*1f]
[INFO_|12/06 00:55:01|Transport.loadDeviceByTransportID:1649] Located Device 'admin/test01' (using default Device transport)
[INFO_|12/06 00:55:01|EventData.updateAddress:1920] [Account 'admin'] PrivateLabel '*' does not define a ReverseGeocodeProvider
[INFO_|12/06 00:58:22|Data.logInfo:1077] gprmc: [77.103.2.211] POST: http://gps.0-one.net:8080/gprmc/Data acct=admin&dev=test01&gprmc=$GPRMC,235816,A,5134.172,N,00006.7736,E,000.0,000.0,051211,,*24 [acct=admin&dev=test01&gprmc=$GPRMC,235816,A,5134.172,N,00006.7736,E,000.0,000.0,051211,,*24]
[INFO_|12/06 00:58:22|Transport.loadDeviceByTransportID:1649] Located Device 'admin/test01' (using default Device transport)
[INFO_|12/06 00:58:22|EventData.updateAddress:1920] [Account 'admin'] PrivateLabel '*' does not define a ReverseGeocodeProvider
[INFO_|12/06 01:00:28|Data.logInfo:1077] gprmc: [77.103.2.211] POST: http://gps.0-one.net:8080/gprmc/Data acct=admin&dev=test01&gprmc=$GPRMC,000022,A,5134.1752,N,00006.778,E,000.0,000.0,061211,,*24 [dev=test01&gprmc=$GPRMC,000022,A,5134.1752,N,00006.778,E,000.0,000.0,061211,,*24&acct=admin]
[INFO_|12/06 01:00:28|Transport.loadDeviceByTransportID:1649] Located Device 'admin/test01' (using default Device transport)
[INFO_|12/06 01:00:28|EventData.updateAddress:1920] [Account 'admin'] PrivateLabel '*' does not define a ReverseGeocodeProvider
[INFO_|12/06 01:02:28|Data.logInfo:1077] gprmc: [77.103.2.211] POST: http://gps.0-one.net:8080/gprmc/Data acct=admin&dev=test01&gprmc=$GPRMC,000222,A,5134.1752,N,00006.778,E,000.0,000.0,061211,,*26 [dev=test01&gprmc=$GPRMC,000222,A,5134.1752,N,00006.778,E,000.0,000.0,061211,,*26&acct=admin]
[INFO_|12/06 01:02:28|Transport.loadDeviceByTransportID:1649] Located Device 'admin/test01' (using default Device transport)
[INFO_|12/06 01:02:28|EventData.updateAddress:1920] [Account 'admin'] PrivateLabel '*' does not define a ReverseGeocodeProvider
[INFO_|12/06 01:04:28|Data.logInfo:1077] gprmc: [77.103.2.211] POST: http://gps.0-one.net:8080/gprmc/Data acct=admin&dev=test01&gprmc=$GPRMC,000422,A,5134.1765,N,00006.7788,E,000.0,000.0,061211,,*1c [acct=admin&dev=test01&gprmc=$GPRMC,000422,A,5134.1765,N,00006.7788,E,000.0,000.0,061211,,*1c]
[INFO_|12/06 01:04:28|Transport.loadDeviceByTransportID:1649] Located Device 'admin/test01' (using default Device transport)
[INFO_|12/06 01:04:28|EventData.updateAddress:1920] [Account 'admin'] PrivateLabel '*' does not define a ReverseGeocodeProvider
[INFO_|12/06 01:06:28|Data.logInfo:1077] gprmc: [77.103.2.211] POST: http://gps.0-one.net:8080/gprmc/Data acct=admin&dev=test01&gprmc=$GPRMC,000622,A,5134.1772,N,00006.7815,E,000.0,000.0,061211,,*13 [dev=test01&gprmc=$GPRMC,000622,A,5134.1772,N,00006.7815,E,000.0,000.0,061211,,*13&acct=admin]
[INFO_|12/06 01:06:28|Transport.loadDeviceByTransportID:1649] Located Device 'admin/test01' (using default Device transport)
[INFO_|12/06 01:06:28|EventData.updateAddress:1920] [Account 'admin'] PrivateLabel '*' does not define a ReverseGeocodeProvider
[INFO_|12/06 01:08:28|Data.logInfo:1077] gprmc: [77.103.2.211] POST: http://gps.0-one.net:8080/gprmc/Data acct=admin&dev=test01&gprmc=$GPRMC,000822,A,5134.1772,N,00006.7815,E,000.0,000.0,061211,,*1d [acct=admin&dev=test01&gprmc=$GPRMC,000822,A,5134.1772,N,00006.7815,E,000.0,000.0,061211,,*1d]
[INFO_|12/06 01:08:28|Transport.loadDeviceByTransportID:1649] Located Device 'admin/test01' (using default Device transport)
[INFO_|12/06 01:08:28|EventData.updateAddress:1920] [Account 'admin'] PrivateLabel '*' does not define a ReverseGeocodeProvider
[INFO_|12/06 01:10:28|Data.logInfo:1077] gprmc: [77.103.2.211] POST: http://gps.0-one.net:8080/gprmc/Data acct=admin&dev=test01&gprmc=$GPRMC,001022,A,5134.1755,N,00006.7783,E,000.0,000.0,061211,,*11 [acct=admin&dev=test01&gprmc=$GPRMC,001022,A,5134.1755,N,00006.7783,E,000.0,000.0,061211,,*11]
[INFO_|12/06 01:10:28|Transport.loadDeviceByTransportID:1649] Located Device 'admin/test01' (using default Device transport)
[INFO_|12/06 01:10:28|EventData.updateAddress:1920] [Account 'admin'] PrivateLabel '*' does not define a ReverseGeocodeProvider
[INFO_|12/06 01:12:28|Data.logInfo:1077] gprmc: [77.103.2.211] POST: http://gps.0-one.net:8080/gprmc/Data acct=admin&dev=test01&gprmc=$GPRMC,001222,A,5134.1789,N,00006.7819,E,000.0,000.0,061211,,*1e [acct=admin&dev=test01&gprmc=$GPRMC,001222,A,5134.1789,N,00006.7819,E,000.0,000.0,061211,,*1e]
[INFO_|12/06 01:12:28|Transport.loadDeviceByTransportID:1649] Located Device 'admin/test01' (using default Device transport)
[INFO_|12/06 01:12:28|EventData.updateAddress:1920] [Account 'admin'] PrivateLabel '*' does not define a ReverseGeocodeProvider
[INFO_|12/06 01:14:28|Data.logInfo:1077] gprmc: [77.103.2.211] POST: http://gps.0-one.net:8080/gprmc/Data acct=admin&dev=test01&gprmc=$GPRMC,001422,A,5134.178,N,00006.7816,E,000.0,000.0,061211,,*2e [acct=admin&dev=test01&gprmc=$GPRMC,001422,A,5134.178,N,00006.7816,E,000.0,000.0,061211,,*2e]
[INFO_|12/06 01:14:28|Transport.loadDeviceByTransportID:1649] Located Device 'admin/test01' (using default Device transport)
[INFO_|12/06 01:14:28|EventData.updateAddress:1920] [Account 'admin'] PrivateLabel '*' does not define a ReverseGeocodeProvider
[INFO_|12/06 01:16:28|Data.logInfo:1077] gprmc: [77.103.2.211] POST: http://gps.0-one.net:8080/gprmc/Data acct=admin&dev=test01&gprmc=$GPRMC,001622,A,5134.1754,N,00006.7797,E,000.0,000.0,061211,,*13 [acct=admin&dev=test01&gprmc=$GPRMC,001622,A,5134.1754,N,00006.7797,E,000.0,000.0,061211,,*13]
[INFO_|12/06 01:16:28|Transport.loadDeviceByTransportID:1649] Located Device 'admin/test01' (using default Device transport)
[INFO_|12/06 01:16:28|EventData.updateAddress:1920] [Account 'admin'] PrivateLabel '*' does not define a ReverseGeocodeProvider
[INFO_|12/06 01:18:29|Data.logInfo:1077] gprmc: [77.103.2.211] POST: http://gps.0-one.net:8080/gprmc/Data acct=admin&dev=test01&gprmc=$GPRMC,001822,A,5134.1772,N,00006.7815,E,000.0,000.0,061211,,*1c [acct=admin&dev=test01&gprmc=$GPRMC,001822,A,5134.1772,N,00006.7815,E,000.0,000.0,061211,,*1c]
[INFO_|12/06 01:18:29|Transport.loadDeviceByTransportID:1649] Located Device 'admin/test01' (using default Device transport)
[INFO_|12/06 01:18:29|EventData.updateAddress:1920] [Account 'admin'] PrivateLabel '*' does not define a ReverseGeocodeProvider
[INFO_|12/06 01:20:28|Data.logInfo:1077] gprmc: [77.103.2.211] POST: http://gps.0-one.net:8080/gprmc/Data acct=admin&dev=test01&gprmc=$GPRMC,002022,A,5134.178,N,00006.7816,E,000.0,000.0,061211,,*29 [dev=test01&gprmc=$GPRMC,002022,A,5134.178,N,00006.7816,E,000.0,000.0,061211,,*29&acct=admin]
[INFO_|12/06 01:20:28|Transport.loadDeviceByTransportID:1649] Located Device 'admin/test01' (using default Device transport)
[INFO_|12/06 01:20:28|EventData.updateAddress:1920] [Account 'admin'] PrivateLabel '*' does not define a ReverseGeocodeProvider
[INFO_|12/06 01:22:28|Data.logInfo:1077] gprmc: [77.103.2.211] POST: http://gps.0-one.net:8080/gprmc/Data acct=admin&dev=test01&gprmc=$GPRMC,002222,A,5134.1781,N,00006.7818,E,000.0,000.0,061211,,*14 [dev=test01&gprmc=$GPRMC,002222,A,5134.1781,N,00006.7818,E,000.0,000.0,061211,,*14&acct=admin]
[INFO_|12/06 01:22:28|Transport.loadDeviceByTransportID:1649] Located Device 'admin/test01' (using default Device transport)
[INFO_|12/06 01:22:28|EventData.updateAddress:1920] [Account 'admin'] PrivateLabel '*' does not define a ReverseGeocodeProvider
[INFO_|12/06 01:24:29|Data.logInfo:1077] gprmc: [77.103.2.211] POST: http://gps.0-one.net:8080/gprmc/Data acct=admin&dev=test01&gprmc=$GPRMC,002422,A,5134.178,N,00006.7816,E,000.0,000.0,061211,,*2d [acct=admin&dev=test01&gprmc=$GPRMC,002422,A,5134.178,N,00006.7816,E,000.0,000.0,061211,,*2d]
[INFO_|12/06 01:24:29|Transport.loadDeviceByTransportID:1649] Located Device 'admin/test01' (using default Device transport)
[INFO_|12/06 01:24:29|EventData.updateAddress:1920] [Account 'admin'] PrivateLabel '*' does not define a ReverseGeocodeProvider
[INFO_|12/06 01:26:28|Data.logInfo:1077] gprmc: [77.103.2.211] POST: http://gps.0-one.net:8080/gprmc/Data acct=admin&dev=test01&gprmc=$GPRMC,002622,A,5134.1761,N,00006.7777,E,000.0,000.0,061211,,*18 [dev=test01&gprmc=$GPRMC,002622,A,5134.1761,N,00006.7777,E,000.0,000.0,061211,,*18&acct=admin]
[INFO_|12/06 01:26:28|Transport.loadDeviceByTransportID:1649] Located Device 'admin/test01' (using default Device transport)
[INFO_|12/06 01:26:28|EventData.updateAddress:1920] [Account 'admin'] PrivateLabel '*' does not define a ReverseGeocodeProvider
[INFO_|12/06 01:28:29|Data.logInfo:1077] gprmc: [77.103.2.211] POST: http://gps.0-one.net:8080/gprmc/Data acct=admin&dev=test01&gprmc=$GPRMC,002822,A,5134.1764,N,00006.7802,E,000.0,000.0,061211,,*1e [acct=admin&dev=test01&gprmc=$GPRMC,002822,A,5134.1764,N,00006.7802,E,000.0,000.0,061211,,*1e]
[INFO_|12/06 01:28:29|Transport.loadDeviceByTransportID:1649] Located Device 'admin/test01' (using default Device transport)
[INFO_|12/06 01:28:29|EventData.updateAddress:1920] [Account 'admin'] PrivateLabel '*' does not define a ReverseGeocodeProvider
[INFO_|12/06 01:30:28|Data.logInfo:1077] gprmc: [77.103.2.211] POST: http://gps.0-one.net:8080/gprmc/Data acct=admin&dev=test01&gprmc=$GPRMC,003022,A,5134.1783,N,00006.7819,E,000.0,000.0,061211,,*14 [acct=admin&dev=test01&gprmc=$GPRMC,003022,A,5134.1783,N,00006.7819,E,000.0,000.0,061211,,*14]
[INFO_|12/06 01:30:28|Transport.loadDeviceByTransportID:1649] Located Device 'admin/test01' (using default Device transport)
[INFO_|12/06 01:30:28|EventData.updateAddress:1920] [Account 'admin'] PrivateLabel '*' does not define a ReverseGeocodeProvider
[INFO_|12/06 01:32:29|Data.logInfo:1077] gprmc: [77.103.2.211] POST: http://gps.0-one.net:8080/gprmc/Data acct=admin&dev=test01&gprmc=$GPRMC,003222,A,5134.1789,N,00006.7819,E,000.0,000.0,061211,,*1c [acct=admin&dev=test01&gprmc=$GPRMC,003222,A,5134.1789,N,00006.7819,E,000.0,000.0,061211,,*1c]
[INFO_|12/06 01:32:29|Transport.loadDeviceByTransportID:1649] Located Device 'admin/test01' (using default Device transport)
[INFO_|12/06 01:32:29|EventData.updateAddress:1920] [Account 'admin'] PrivateLabel '*' does not define a ReverseGeocodeProvider
[INFO_|12/06 01:34:29|Data.logInfo:1077] gprmc: [77.103.2.211] POST: http://gps.0-one.net:8080/gprmc/Data acct=admin&dev=test01&gprmc=$GPRMC,003422,A,5134.1789,N,00006.7819,E,000.0,000.0,061211,,*1a [dev=test01&gprmc=$GPRMC,003422,A,5134.1789,N,00006.7819,E,000.0,000.0,061211,,*1a&acct=admin]
[INFO_|12/06 01:34:29|Transport.loadDeviceByTransportID:1649] Located Device 'admin/test01' (using default Device transport)
[INFO_|12/06 01:34:29|EventData.updateAddress:1920] [Account 'admin'] PrivateLabel '*' does not define a ReverseGeocodeProvider
[INFO_|12/06 01:36:29|Data.logInfo:1077] gprmc: [77.103.2.211] POST: http://gps.0-one.net:8080/gprmc/Data acct=admin&dev=test01&gprmc=$GPRMC,003623,A,5134.178,N,00006.7816,E,000.0,000.0,061211,,*2f [dev=test01&gprmc=$GPRMC,003623,A,5134.178,N,00006.7816,E,000.0,000.0,061211,,*2f&acct=admin]
[INFO_|12/06 01:36:29|Transport.loadDeviceByTransportID:1649] Located Device 'admin/test01' (using default Device transport)
[INFO_|12/06 01:36:29|EventData.updateAddress:1920] [Account 'admin'] PrivateLabel '*' does not define a ReverseGeocodeProvider
[INFO_|12/06 01:38:29|Data.logInfo:1077] gprmc: [77.103.2.211] POST: http://gps.0-one.net:8080/gprmc/Data acct=admin&dev=test01&gprmc=$GPRMC,003823,A,5134.1769,N,00006.78,E,000.0,000.0,061211,,*11 [acct=admin&dev=test01&gprmc=$GPRMC,003823,A,5134.1769,N,00006.78,E,000.0,000.0,061211,,*11]
[INFO_|12/06 01:38:29|Transport.loadDeviceByTransportID:1649] Located Device 'admin/test01' (using default Device transport)
[INFO_|12/06 01:38:29|EventData.updateAddress:1920] [Account 'admin'] PrivateLabel '*' does not define a ReverseGeocodeProvider
[INFO_|12/06 01:40:33|Data.logInfo:1077] gprmc: [77.103.2.211] POST: http://gps.0-one.net:8080/gprmc/Data acct=admin&dev=test01&gprmc=$GPRMC,004027,A,5134.1769,N,00006.78,E,000.0,000.0,061211,,*1a [dev=test01&gprmc=$GPRMC,004027,A,5134.1769,N,00006.78,E,000.0,000.0,061211,,*1a&acct=admin]
[INFO_|12/06 01:40:33|Transport.loadDeviceByTransportID:1649] Located Device 'admin/test01' (using default Device transport)
[INFO_|12/06 01:40:33|EventData.updateAddress:1920] [Account 'admin'] PrivateLabel '*' does not define a ReverseGeocodeProvider
[INFO_|12/06 01:43:53|Data.logInfo:1077] gprmc: [77.103.2.211] POST: http://gps.0-one.net:8080/gprmc/Data acct=admin&dev=test01&gprmc=$GPRMC,004347,A,5134.1779,N,00006.7815,E,000.0,000.0,061211,,*1a [acct=admin&dev=test01&gprmc=$GPRMC,004347,A,5134.1779,N,00006.7815,E,000.0,000.0,061211,,*1a]
[INFO_|12/06 01:43:53|Transport.loadDeviceByTransportID:1649] Located Device 'admin/test01' (using default Device transport)
[INFO_|12/06 01:43:53|EventData.updateAddress:1920] [Account 'admin'] PrivateLabel '*' does not define a ReverseGeocodeProvider
[INFO_|12/06 01:45:53|Data.logInfo:1077] gprmc: [77.103.2.211] POST: http://gps.0-one.net:8080/gprmc/Data acct=admin&dev=test01&gprmc=$GPRMC,004547,A,5134.1734,N,00006.7764,E,000.0,000.0,061211,,*1c [acct=admin&dev=test01&gprmc=$GPRMC,004547,A,5134.1734,N,00006.7764,E,000.0,000.0,061211,,*1c]
[INFO_|12/06 01:45:53|Transport.loadDeviceByTransportID:1649] Located Device 'admin/test01' (using default Device transport)
[INFO_|12/06 01:45:53|EventData.updateAddress:1920] [Account 'admin'] PrivateLabel '*' does not define a ReverseGeocodeProvider
[INFO_|12/06 01:50:37|Data.logInfo:1077] gprmc: [77.103.2.211] POST: http://gps.0-one.net:8080/gprmc/Data acct=admin&dev=test01&gprmc=$GPRMC,005031,A,5134.1806,N,00006.7863,E,000.0,000.0,061211,,*1f [dev=test01&gprmc=$GPRMC,005031,A,5134.1806,N,00006.7863,E,000.0,000.0,061211,,*1f&acct=admin]
[INFO_|12/06 01:50:37|Transport.loadDeviceByTransportID:1649] Located Device 'admin/test01' (using default Device transport)
[INFO_|12/06 01:50:37|EventData.updateAddress:1920] [Account 'admin'] PrivateLabel '*' does not define a ReverseGeocodeProvider
[INFO_|12/06 01:52:40|Data.logInfo:1077] gprmc: [77.103.2.211] POST: http://gps.0-one.net:8080/gprmc/Data acct=admin&dev=test01&gprmc=$GPRMC,005234,A,5134.1726,N,00006.7755,E,000.0,000.0,061211,,*1f [acct=admin&dev=test01&gprmc=$GPRMC,005234,A,5134.1726,N,00006.7755,E,000.0,000.0,061211,,*1f]
[INFO_|12/06 01:52:40|Transport.loadDeviceByTransportID:1649] Located Device 'admin/test01' (using default Device transport)
[INFO_|12/06 01:52:40|EventData.updateAddress:1920] [Account 'admin'] PrivateLabel '*' does not define a ReverseGeocodeProvider
[INFO_|12/06 01:56:40|Data.logInfo:1077] gprmc: [77.103.2.211] POST: http://gps.0-one.net:8080/gprmc/Data acct=admin&dev=test01&gprmc=$GPRMC,005634,A,5134.1764,N,00006.7803,E,000.0,000.0,061211,,*11 [acct=admin&dev=test01&gprmc=$GPRMC,005634,A,5134.1764,N,00006.7803,E,000.0,000.0,061211,,*11]
[INFO_|12/06 01:56:40|Transport.loadDeviceByTransportID:1649] Located Device 'admin/test01' (using default Device transport)
[INFO_|12/06 01:56:40|EventData.updateAddress:1920] [Account 'admin'] PrivateLabel '*' does not define a ReverseGeocodeProvider
[INFO_|12/06 01:58:40|Data.logInfo:1077] gprmc: [77.103.2.211] POST: http://gps.0-one.net:8080/gprmc/Data acct=admin&dev=test01&gprmc=$GPRMC,005834,A,5134.177,N,00006.7787,E,000.0,000.0,061211,,*29 [acct=admin&dev=test01&gprmc=$GPRMC,005834,A,5134.177,N,00006.7787,E,000.0,000.0,061211,,*29]
[INFO_|12/06 01:58:40|Transport.loadDeviceByTransportID:1649] Located Device 'admin/test01' (using default Device transport)
[INFO_|12/06 01:58:40|EventData.updateAddress:1920] [Account 'admin'] PrivateLabel '*' does not define a ReverseGeocodeProvider
[INFO_|12/06 02:00:40|Data.logInfo:1077] gprmc: [77.103.2.211] POST: http://gps.0-one.net:8080/gprmc/Data acct=admin&dev=test01&gprmc=$GPRMC,010034,A,5134.1766,N,00006.7806,E,000.0,000.0,061211,,*14 [dev=test01&gprmc=$GPRMC,010034,A,5134.1766,N,00006.7806,E,000.0,000.0,061211,,*14&acct=admin]
[INFO_|12/06 02:00:40|Transport.loadDeviceByTransportID:1649] Located Device 'admin/test01' (using default Device transport)
[INFO_|12/06 02:00:40|EventData.updateAddress:1920] [Account 'admin'] PrivateLabel '*' does not define a ReverseGeocodeProvider
[INFO_|12/06 02:02:40|Data.logInfo:1077] gprmc: [77.103.2.211] POST: http://gps.0-one.net:8080/gprmc/Data acct=admin&dev=test01&gprmc=$GPRMC,010234,A,5134.1767,N,00006.7818,E,000.0,000.0,061211,,*18 [dev=test01&gprmc=$GPRMC,010234,A,5134.1767,N,00006.7818,E,000.0,000.0,061211,,*18&acct=admin]
[INFO_|12/06 02:02:40|Transport.loadDeviceByTransportID:1649] Located Device 'admin/test01' (using default Device transport)
[INFO_|12/06 02:02:40|EventData.updateAddress:1920] [Account 'admin'] PrivateLabel '*' does not define a ReverseGeocodeProvider
[INFO_|12/06 02:04:40|Data.logInfo:1077] gprmc: [77.103.2.211] POST: http://gps.0-one.net:8080/gprmc/Data acct=admin&dev=test01&gprmc=$GPRMC,010434,A,5134.1755,N,00006.781,E,000.0,000.0,061211,,*27 [acct=admin&dev=test01&gprmc=$GPRMC,010434,A,5134.1755,N,00006.781,E,000.0,000.0,061211,,*27]
[INFO_|12/06 02:04:40|Transport.loadDeviceByTransportID:1649] Located Device 'admin/test01' (using default Device transport)
[INFO_|12/06 02:04:40|EventData.updateAddress:1920] [Account 'admin'] PrivateLabel '*' does not define a ReverseGeocodeProvider
[INFO_|12/06 02:06:40|Data.logInfo:1077] gprmc: [77.103.2.211] POST: http://gps.0-one.net:8080/gprmc/Data acct=admin&dev=test01&gprmc=$GPRMC,010634,A,5134.1761,N,00006.7782,E,000.0,000.0,061211,,*16 [dev=test01&gprmc=$GPRMC,010634,A,5134.1761,N,00006.7782,E,000.0,000.0,061211,,*16&acct=admin]
[INFO_|12/06 02:06:40|Transport.loadDeviceByTransportID:1649] Located Device 'admin/test01' (using default Device transport)
[INFO_|12/06 02:06:40|EventData.updateAddress:1920] [Account 'admin'] PrivateLabel '*' does not define a ReverseGeocodeProvider
[INFO_|12/06 02:08:40|Data.logInfo:1077] gprmc: [77.103.2.211] POST: http://gps.0-one.net:8080/gprmc/Data acct=admin&dev=test01&gprmc=$GPRMC,010834,A,5134.1742,N,00006.7766,E,000.0,000.0,061211,,*13 [acct=admin&dev=test01&gprmc=$GPRMC,010834,A,5134.1742,N,00006.7766,E,000.0,000.0,061211,,*13]
[INFO_|12/06 02:08:40|Transport.loadDeviceByTransportID:1649] Located Device 'admin/test01' (using default Device transport)
[INFO_|12/06 02:08:40|EventData.updateAddress:1920] [Account 'admin'] PrivateLabel '*' does not define a ReverseGeocodeProvider
[INFO_|12/06 02:10:40|Data.logInfo:1077] gprmc: [77.103.2.211] POST: http://gps.0-one.net:8080/gprmc/Data acct=admin&dev=test01&gprmc=$GPRMC,011034,A,5134.177,N,00006.7787,E,000.0,000.0,061211,,*24 [acct=admin&dev=test01&gprmc=$GPRMC,011034,A,5134.177,N,00006.7787,E,000.0,000.0,061211,,*24]
[INFO_|12/06 02:10:40|Transport.loadDeviceByTransportID:1649] Located Device 'admin/test01' (using default Device transport)
[INFO_|12/06 02:10:40|EventData.updateAddress:1920] [Account 'admin'] PrivateLabel '*' does not define a ReverseGeocodeProvider
[INFO_|12/06 02:12:40|Data.logInfo:1077] gprmc: [77.103.2.211] POST: http://gps.0-one.net:8080/gprmc/Data acct=admin&dev=test01&gprmc=$GPRMC,011234,A,5134.1752,N,00006.7801,E,000.0,000.0,061211,,*17 [acct=admin&dev=test01&gprmc=$GPRMC,011234,A,5134.1752,N,00006.7801,E,000.0,000.0,061211,,*17]
[INFO_|12/06 02:12:40|Transport.loadDeviceByTransportID:1649] Located Device 'admin/test01' (using default Device transport)
[INFO_|12/06 02:12:40|EventData.updateAddress:1920] [Account 'admin'] PrivateLabel '*' does not define a ReverseGeocodeProvider
[INFO_|12/06 02:14:40|Data.logInfo:1077] gprmc: [77.103.2.211] POST: http://gps.0-one.net:8080/gprmc/Data acct=admin&dev=test01&gprmc=$GPRMC,011435,A,5134.1768,N,00006.7801,E,000.0,000.0,061211,,*19 [dev=test01&gprmc=$GPRMC,011435,A,5134.1768,N,00006.7801,E,000.0,000.0,061211,,*19&acct=admin]
[INFO_|12/06 02:14:40|Transport.loadDeviceByTransportID:1649] Located Device 'admin/test01' (using default Device transport)
[INFO_|12/06 02:14:40|EventData.updateAddress:1920] [Account 'admin'] PrivateLabel '*' does not define a ReverseGeocodeProvider
[INFO_|12/06 02:16:40|Data.logInfo:1077] gprmc: [77.103.2.211] POST: http://gps.0-one.net:8080/gprmc/Data acct=admin&dev=test01&gprmc=$GPRMC,011635,A,5134.1779,N,00006.7817,E,000.0,000.0,061211,,*1c [dev=test01&gprmc=$GPRMC,011635,A,5134.1779,N,00006.7817,E,000.0,000.0,061211,,*1c&acct=admin]
[INFO_|12/06 02:16:40|Transport.loadDeviceByTransportID:1649] Located Device 'admin/test01' (using default Device transport)
[INFO_|12/06 02:16:40|EventData.updateAddress:1920] [Account 'admin'] PrivateLabel '*' does not define a ReverseGeocodeProvider
[INFO_|12/06 02:18:40|Data.logInfo:1077] gprmc: [77.103.2.211] POST: http://gps.0-one.net:8080/gprmc/Data acct=admin&dev=test01&gprmc=$GPRMC,011835,A,5134.1785,N,00006.7817,E,000.0,000.0,061211,,*11 [acct=admin&dev=test01&gprmc=$GPRMC,011835,A,5134.1785,N,00006.7817,E,000.0,000.0,061211,,*11]
[INFO_|12/06 02:18:40|Transport.loadDeviceByTransportID:1649] Located Device 'admin/test01' (using default Device transport)
[INFO_|12/06 02:18:40|EventData.updateAddress:1920] [Account 'admin'] PrivateLabel '*' does not define a ReverseGeocodeProvider
[INFO_|12/06 02:20:40|Data.logInfo:1077] gprmc: [77.103.2.211] POST: http://gps.0-one.net:8080/gprmc/Data acct=admin&dev=test01&gprmc=$GPRMC,012035,A,5134.174,N,00006.7772,E,000.0,000.0,061211,,*2f [dev=test01&gprmc=$GPRMC,012035,A,5134.174,N,00006.7772,E,000.0,000.0,061211,,*2f&acct=admin]
[INFO_|12/06 02:20:40|Transport.loadDeviceByTransportID:1649] Located Device 'admin/test01' (using default Device transport)
[INFO_|12/06 02:20:40|EventData.updateAddress:1920] [Account 'admin'] PrivateLabel '*' does not define a ReverseGeocodeProvider
[INFO_|12/06 02:22:40|Data.logInfo:1077] gprmc: [77.103.2.211] POST: http://gps.0-one.net:8080/gprmc/Data acct=admin&dev=test01&gprmc=$GPRMC,012235,A,5134.1752,N,00006.7772,E,000.0,000.0,061211,,*1e [acct=admin&dev=test01&gprmc=$GPRMC,012235,A,5134.1752,N,00006.7772,E,000.0,000.0,061211,,*1e]
[INFO_|12/06 02:22:40|Transport.loadDeviceByTransportID:1649] Located Device 'admin/test01' (using default Device transport)
[INFO_|12/06 02:22:40|EventData.updateAddress:1920] [Account 'admin'] PrivateLabel '*' does not define a ReverseGeocodeProvider
[INFO_|12/06 02:24:40|Data.logInfo:1077] gprmc: [77.103.2.211] POST: http://gps.0-one.net:8080/gprmc/Data acct=admin&dev=test01&gprmc=$GPRMC,012435,A,5134.1752,N,00006.7772,E,000.0,000.0,061211,,*18 [acct=admin&dev=test01&gprmc=$GPRMC,012435,A,5134.1752,N,00006.7772,E,000.0,000.0,061211,,*18]
[INFO_|12/06 02:24:40|Transport.loadDeviceByTransportID:1649] Located Device 'admin/test01' (using default Device transport)
[INFO_|12/06 02:24:40|EventData.updateAddress:1920] [Account 'admin'] PrivateLabel '*' does not define a ReverseGeocodeProvider
[INFO_|12/06 02:26:41|Data.logInfo:1077] gprmc: [77.103.2.211] POST: http://gps.0-one.net:8080/gprmc/Data acct=admin&dev=test01&gprmc=$GPRMC,012635,A,5134.1752,N,00006.7772,E,000.0,000.0,061211,,*1a [acct=admin&dev=test01&gprmc=$GPRMC,012635,A,5134.1752,N,00006.7772,E,000.0,000.0,061211,,*1a]
[INFO_|12/06 02:26:41|Transport.loadDeviceByTransportID:1649] Located Device 'admin/test01' (using default Device transport)
[INFO_|12/06 02:26:41|EventData.updateAddress:1920] [Account 'admin'] PrivateLabel '*' does not define a ReverseGeocodeProvider
[INFO_|12/06 02:28:41|Data.logInfo:1077] gprmc: [77.103.2.211] POST: http://gps.0-one.net:8080/gprmc/Data acct=admin&dev=test01&gprmc=$GPRMC,012835,A,5134.1785,N,00006.7817,E,000.0,000.0,061211,,*12 [dev=test01&gprmc=$GPRMC,012835,A,5134.1785,N,00006.7817,E,000.0,000.0,061211,,*12&acct=admin]
[INFO_|12/06 02:28:41|Transport.loadDeviceByTransportID:1649] Located Device 'admin/test01' (using default Device transport)
[INFO_|12/06 02:28:41|EventData.updateAddress:1920] [Account 'admin'] PrivateLabel '*' does not define a ReverseGeocodeProvider
[INFO_|12/06 02:30:41|Data.logInfo:1077] gprmc: [77.103.2.211] POST: http://gps.0-one.net:8080/gprmc/Data acct=admin&dev=test01&gprmc=$GPRMC,013035,A,5134.1785,N,00006.7817,E,000.0,000.0,061211,,*1b [dev=test01&gprmc=$GPRMC,013035,A,5134.1785,N,00006.7817,E,000.0,000.0,061211,,*1b&acct=admin]
[INFO_|12/06 02:30:41|Transport.loadDeviceByTransportID:1649] Located Device 'admin/test01' (using default Device transport)
[INFO_|12/06 02:30:41|EventData.updateAddress:1920] [Account 'admin'] PrivateLabel '*' does not define a ReverseGeocodeProvider
[INFO_|12/06 02:32:41|Data.logInfo:1077] gprmc: [77.103.2.211] POST: http://gps.0-one.net:8080/gprmc/Data acct=admin&dev=test01&gprmc=$GPRMC,013235,A,5134.177,N,00006.7787,E,000.0,000.0,061211,,*25 [acct=admin&dev=test01&gprmc=$GPRMC,013235,A,5134.177,N,00006.7787,E,000.0,000.0,061211,,*25]
[INFO_|12/06 02:32:41|Transport.loadDeviceByTransportID:1649] Located Device 'admin/test01' (using default Device transport)
[INFO_|12/06 02:32:41|EventData.updateAddress:1920] [Account 'admin'] PrivateLabel '*' does not define a ReverseGeocodeProvider
[INFO_|12/06 02:34:41|Data.logInfo:1077] gprmc: [77.103.2.211] POST: http://gps.0-one.net:8080/gprmc/Data acct=admin&dev=test01&gprmc=$GPRMC,013435,A,5134.1749,N,00006.7777,E,000.0,000.0,061211,,*16 [dev=test01&gprmc=$GPRMC,013435,A,5134.1749,N,00006.7777,E,000.0,000.0,061211,,*16&acct=admin]
[INFO_|12/06 02:34:41|Transport.loadDeviceByTransportID:1649] Located Device 'admin/test01' (using default Device transport)
[INFO_|12/06 02:34:41|EventData.updateAddress:1920] [Account 'admin'] PrivateLabel '*' does not define a ReverseGeocodeProvider
[INFO_|12/06 02:36:41|Data.logInfo:1077] gprmc: [77.103.2.211] POST: http://gps.0-one.net:8080/gprmc/Data acct=admin&dev=test01&gprmc=$GPRMC,013635,A,5134.177,N,00006.7787,E,000.0,000.0,061211,,*21 [acct=admin&dev=test01&gprmc=$GPRMC,013635,A,5134.177,N,00006.7787,E,000.0,000.0,061211,,*21]
[INFO_|12/06 02:36:41|Transport.loadDeviceByTransportID:1649] Located Device 'admin/test01' (using default Device transport)
[INFO_|12/06 02:36:41|EventData.updateAddress:1920] [Account 'admin'] PrivateLabel '*' does not define a ReverseGeocodeProvider
[INFO_|12/06 02:38:41|Data.logInfo:1077] gprmc: [77.103.2.211] POST: http://gps.0-one.net:8080/gprmc/Data acct=admin&dev=test01&gprmc=$GPRMC,013835,A,5134.177,N,00006.7787,E,000.0,000.0,061211,,*2f [acct=admin&dev=test01&gprmc=$GPRMC,013835,A,5134.177,N,00006.7787,E,000.0,000.0,061211,,*2f]
[INFO_|12/06 02:38:41|Transport.loadDeviceByTransportID:1649] Located Device 'admin/test01' (using default Device transport)
[INFO_|12/06 02:38:41|EventData.updateAddress:1920] [Account 'admin'] PrivateLabel '*' does not define a ReverseGeocodeProvider
[INFO_|12/06 02:40:41|Data.logInfo:1077] gprmc: [77.103.2.211] POST: http://gps.0-one.net:8080/gprmc/Data acct=admin&dev=test01&gprmc=$GPRMC,014035,A,5134.177,N,00006.7787,E,000.0,000.0,061211,,*20 [acct=admin&dev=test01&gprmc=$GPRMC,014035,A,5134.177,N,00006.7787,E,000.0,000.0,061211,,*20]
[INFO_|12/06 02:40:41|Transport.loadDeviceByTransportID:1649] Located Device 'admin/test01' (using default Device transport)
[INFO_|12/06 02:40:41|EventData.updateAddress:1920] [Account 'admin'] PrivateLabel '*' does not define a ReverseGeocodeProvider
[INFO_|12/06 02:42:41|Data.logInfo:1077] gprmc: [77.103.2.211] POST: http://gps.0-one.net:8080/gprmc/Data acct=admin&dev=test01&gprmc=$GPRMC,014235,A,5134.1773,N,00006.7796,E,000.0,000.0,061211,,*11 [dev=test01&gprmc=$GPRMC,014235,A,5134.1773,N,00006.7796,E,000.0,000.0,061211,,*11&acct=admin]
[INFO_|12/06 02:42:41|Transport.loadDeviceByTransportID:1649] Located Device 'admin/test01' (using default Device transport)
[INFO_|12/06 02:42:41|EventData.updateAddress:1920] [Account 'admin'] PrivateLabel '*' does not define a ReverseGeocodeProvider
[INFO_|12/06 02:44:41|Data.logInfo:1077] gprmc: [77.103.2.211] POST: http://gps.0-one.net:8080/gprmc/Data acct=admin&dev=test01&gprmc=$GPRMC,014435,A,5134.1781,N,00006.782,E,000.0,000.0,061211,,*28 [dev=test01&gprmc=$GPRMC,014435,A,5134.1781,N,00006.782,E,000.0,000.0,061211,,*28&acct=admin]
[INFO_|12/06 02:44:41|Transport.loadDeviceByTransportID:1649] Located Device 'admin/test01' (using default Device transport)
[INFO_|12/06 02:44:41|EventData.updateAddress:1920] [Account 'admin'] PrivateLabel '*' does not define a ReverseGeocodeProvider
[INFO_|12/06 02:46:41|Data.logInfo:1077] gprmc: [77.103.2.211] POST: http://gps.0-one.net:8080/gprmc/Data acct=admin&dev=test01&gprmc=$GPRMC,014635,A,5134.1781,N,00006.782,E,000.0,000.0,061211,,*2a [acct=admin&dev=test01&gprmc=$GPRMC,014635,A,5134.1781,N,00006.782,E,000.0,000.0,061211,,*2a]
[INFO_|12/06 02:46:41|Transport.loadDeviceByTransportID:1649] Located Device 'admin/test01' (using default Device transport)
[INFO_|12/06 02:46:41|EventData.updateAddress:1920] [Account 'admin'] PrivateLabel '*' does not define a ReverseGeocodeProvider
[INFO_|12/06 02:50:41|Data.logInfo:1077] gprmc: [77.103.2.211] POST: http://gps.0-one.net:8080/gprmc/Data acct=admin&dev=test01&gprmc=$GPRMC,015035,A,5134.1779,N,00006.7817,E,000.0,000.0,061211,,*1e [dev=test01&gprmc=$GPRMC,015035,A,5134.1779,N,00006.7817,E,000.0,000.0,061211,,*1e&acct=admin]
[INFO_|12/06 02:50:41|Transport.loadDeviceByTransportID:1649] Located Device 'admin/test01' (using default Device transport)
[INFO_|12/06 02:50:41|EventData.updateAddress:1920] [Account 'admin'] PrivateLabel '*' does not define a ReverseGeocodeProvider
[INFO_|12/06 02:52:41|Data.logInfo:1077] gprmc: [77.103.2.211] POST: http://gps.0-one.net:8080/gprmc/Data acct=admin&dev=test01&gprmc=$GPRMC,015235,A,5134.1781,N,00006.782,E,000.0,000.0,061211,,*2f [acct=admin&dev=test01&gprmc=$GPRMC,015235,A,5134.1781,N,00006.782,E,000.0,000.0,061211,,*2f]
[INFO_|12/06 02:52:41|Transport.loadDeviceByTransportID:1649] Located Device 'admin/test01' (using default Device transport)
[INFO_|12/06 02:52:41|EventData.updateAddress:1920] [Account 'admin'] PrivateLabel '*' does not define a ReverseGeocodeProvider
[INFO_|12/06 02:54:41|Data.logInfo:1077] gprmc: [77.103.2.211] POST: http://gps.0-one.net:8080/gprmc/Data acct=admin&dev=test01&gprmc=$GPRMC,015435,A,5134.1767,N,00006.7812,E,000.0,000.0,061211,,*10 [acct=admin&dev=test01&gprmc=$GPRMC,015435,A,5134.1767,N,00006.7812,E,000.0,000.0,061211,,*10]
[INFO_|12/06 02:54:41|Transport.loadDeviceByTransportID:1649] Located Device 'admin/test01' (using default Device transport)
[INFO_|12/06 02:54:41|EventData.updateAddress:1920] [Account 'admin'] PrivateLabel '*' does not define a ReverseGeocodeProvider
[INFO_|12/06 02:56:41|Data.logInfo:1077] gprmc: [77.103.2.211] POST: http://gps.0-one.net:8080/gprmc/Data acct=admin&dev=test01&gprmc=$GPRMC,015635,A,5134.1785,N,00006.7817,E,000.0,000.0,061211,,*1b [acct=admin&dev=test01&gprmc=$GPRMC,015635,A,5134.1785,N,00006.7817,E,000.0,000.0,061211,,*1b]
[INFO_|12/06 02:56:41|Transport.loadDeviceByTransportID:1649] Located Device 'admin/test01' (using default Device transport)
[INFO_|12/06 02:56:41|EventData.updateAddress:1920] [Account 'admin'] PrivateLabel '*' does not define a ReverseGeocodeProvider
[INFO_|12/06 02:58:41|Data.logInfo:1077] gprmc: [77.103.2.211] POST: http://gps.0-one.net:8080/gprmc/Data acct=admin&dev=test01&gprmc=$GPRMC,015836,A,5134.1779,N,00006.7817,E,000.0,000.0,061211,,*15 [dev=test01&gprmc=$GPRMC,015836,A,5134.1779,N,00006.7817,E,000.0,000.0,061211,,*15&acct=admin]
[INFO_|12/06 02:58:41|Transport.loadDeviceByTransportID:1649] Located Device 'admin/test01' (using default Device transport)
[INFO_|12/06 02:58:41|EventData.updateAddress:1920] [Account 'admin'] PrivateLabel '*' does not define a ReverseGeocodeProvider
[INFO_|12/06 03:00:41|Data.logInfo:1077] gprmc: [77.103.2.211] POST: http://gps.0-one.net:8080/gprmc/Data acct=admin&dev=test01&gprmc=$GPRMC,020036,A,5134.1779,N,00006.7817,E,000.0,000.0,061211,,*1b [dev=test01&gprmc=$GPRMC,020036,A,5134.1779,N,00006.7817,E,000.0,000.0,061211,,*1b&acct=admin]
[INFO_|12/06 03:00:41|Transport.loadDeviceByTransportID:1649] Located Device 'admin/test01' (using default Device transport)
[INFO_|12/06 03:00:41|EventData.updateAddress:1920] [Account 'admin'] PrivateLabel '*' does not define a ReverseGeocodeProvider
[INFO_|12/06 03:02:41|Data.logInfo:1077] gprmc: [77.103.2.211] POST: http://gps.0-one.net:8080/gprmc/Data acct=admin&dev=test01&gprmc=$GPRMC,020236,A,5134.1767,N,00006.7812,E,000.0,000.0,061211,,*13 [acct=admin&dev=test01&gprmc=$GPRMC,020236,A,5134.1767,N,00006.7812,E,000.0,000.0,061211,,*13]
[INFO_|12/06 03:02:41|Transport.loadDeviceByTransportID:1649] Located Device 'admin/test01' (using default Device transport)
[INFO_|12/06 03:02:41|EventData.updateAddress:1920] [Account 'admin'] PrivateLabel '*' does not define a ReverseGeocodeProvider
[INFO_|12/06 03:05:02|Data.logInfo:1077] gprmc: [77.103.2.211] POST: http://gps.0-one.net:8080/gprmc/Data acct=admin&dev=test01&gprmc=$GPRMC,020457,A,5134.1785,N,00006.7817,E,000.0,000.0,061211,,*1b [dev=test01&gprmc=$GPRMC,020457,A,5134.1785,N,00006.7817,E,000.0,000.0,061211,,*1b&acct=admin]
[INFO_|12/06 03:05:02|Transport.loadDeviceByTransportID:1649] Located Device 'admin/test01' (using default Device transport)
[INFO_|12/06 03:05:02|EventData.updateAddress:1920] [Account 'admin'] PrivateLabel '*' does not define a ReverseGeocodeProvider
[INFO_|12/06 03:07:24|Data.logInfo:1077] gprmc: [77.103.2.211] POST: http://gps.0-one.net:8080/gprmc/Data acct=admin&dev=test01&gprmc=$GPRMC,020718,A,5134.177,N,00006.7787,E,000.0,000.0,061211,,*2f [acct=admin&dev=test01&gprmc=$GPRMC,020718,A,5134.177,N,00006.7787,E,000.0,000.0,061211,,*2f]
[INFO_|12/06 03:07:24|Transport.loadDeviceByTransportID:1649] Located Device 'admin/test01' (using default Device transport)
[INFO_|12/06 03:07:24|EventData.updateAddress:1920] [Account 'admin'] PrivateLabel '*' does not define a ReverseGeocodeProvider
[INFO_|12/06 03:09:24|Data.logInfo:1077] gprmc: [77.103.2.211] POST: http://gps.0-one.net:8080/gprmc/Data acct=admin&dev=test01&gprmc=$GPRMC,020918,A,5134.176,N,00006.7799,E,000.0,000.0,061211,,*2f [acct=admin&dev=test01&gprmc=$GPRMC,020918,A,5134.176,N,00006.7799,E,000.0,000.0,061211,,*2f]
[INFO_|12/06 03:09:24|Transport.loadDeviceByTransportID:1649] Located Device 'admin/test01' (using default Device transport)
[INFO_|12/06 03:09:24|EventData.updateAddress:1920] [Account 'admin'] PrivateLabel '*' does not define a ReverseGeocodeProvider
[INFO_|12/06 03:11:24|Data.logInfo:1077] gprmc: [77.103.2.211] POST: http://gps.0-one.net:8080/gprmc/Data acct=admin&dev=test01&gprmc=$GPRMC,021118,A,5134.177,N,00006.7787,E,000.0,000.0,061211,,*28 [acct=admin&dev=test01&gprmc=$GPRMC,021118,A,5134.177,N,00006.7787,E,000.0,000.0,061211,,*28]
[INFO_|12/06 03:11:24|Transport.loadDeviceByTransportID:1649] Located Device 'admin/test01' (using default Device transport)
[INFO_|12/06 03:11:24|EventData.updateAddress:1920] [Account 'admin'] PrivateLabel '*' does not define a ReverseGeocodeProvider
[INFO_|12/06 03:13:24|Data.logInfo:1077] gprmc: [77.103.2.211] POST: http://gps.0-one.net:8080/gprmc/Data acct=admin&dev=test01&gprmc=$GPRMC,021318,A,5134.1785,N,00006.7817,E,000.0,000.0,061211,,*16 [dev=test01&gprmc=$GPRMC,021318,A,5134.1785,N,00006.7817,E,000.0,000.0,061211,,*16&acct=admin]
[INFO_|12/06 03:13:24|Transport.loadDeviceByTransportID:1649] Located Device 'admin/test01' (using default Device transport)
[INFO_|12/06 03:13:24|EventData.updateAddress:1920] [Account 'admin'] PrivateLabel '*' does not define a ReverseGeocodeProvider
[INFO_|12/06 03:15:24|Data.logInfo:1077] gprmc: [77.103.2.211] POST: http://gps.0-one.net:8080/gprmc/Data acct=admin&dev=test01&gprmc=$GPRMC,021519,A,5134.176,N,00006.7799,E,000.0,000.0,061211,,*23 [dev=test01&gprmc=$GPRMC,021519,A,5134.176,N,00006.7799,E,000.0,000.0,061211,,*23&acct=admin]
[INFO_|12/06 03:15:24|Transport.loadDeviceByTransportID:1649] Located Device 'admin/test01' (using default Device transport)
[INFO_|12/06 03:15:24|EventData.updateAddress:1920] [Account 'admin'] PrivateLabel '*' does not define a ReverseGeocodeProvider
[INFO_|12/06 03:17:24|Data.logInfo:1077] gprmc: [77.103.2.211] POST: http://gps.0-one.net:8080/gprmc/Data acct=admin&dev=test01&gprmc=$GPRMC,021719,A,5134.177,N,00006.7787,E,000.0,000.0,061211,,*2f [acct=admin&dev=test01&gprmc=$GPRMC,021719,A,5134.177,N,00006.7787,E,000.0,000.0,061211,,*2f]
[INFO_|12/06 03:17:24|Transport.loadDeviceByTransportID:1649] Located Device 'admin/test01' (using default Device transport)
[INFO_|12/06 03:17:24|EventData.updateAddress:1920] [Account 'admin'] PrivateLabel '*' does not define a ReverseGeocodeProvider
[INFO_|12/06 03:19:24|Data.logInfo:1077] gprmc: [77.103.2.211] POST: http://gps.0-one.net:8080/gprmc/Data acct=admin&dev=test01&gprmc=$GPRMC,021919,A,5134.1785,N,00006.7817,E,000.0,000.0,061211,,*1d [dev=test01&gprmc=$GPRMC,021919,A,5134.1785,N,00006.7817,E,000.0,000.0,061211,,*1d&acct=admin]
[INFO_|12/06 03:19:24|Transport.loadDeviceByTransportID:1649] Located Device 'admin/test01' (using default Device transport)
[INFO_|12/06 03:19:24|EventData.updateAddress:1920] [Account 'admin'] PrivateLabel '*' does not define a ReverseGeocodeProvider
[INFO_|12/06 03:21:24|Data.logInfo:1077] gprmc: [77.103.2.211] POST: http://gps.0-one.net:8080/gprmc/Data acct=admin&dev=test01&gprmc=$GPRMC,022119,A,5134.177,N,00006.7787,E,000.0,000.0,061211,,*2a [acct=admin&dev=test01&gprmc=$GPRMC,022119,A,5134.177,N,00006.7787,E,000.0,000.0,061211,,*2a]
[INFO_|12/06 03:21:24|Transport.loadDeviceByTransportID:1649] Located Device 'admin/test01' (using default Device transport)
[INFO_|12/06 03:21:24|EventData.updateAddress:1920] [Account 'admin'] PrivateLabel '*' does not define a ReverseGeocodeProvider
[INFO_|12/06 03:23:24|Data.logInfo:1077] gprmc: [77.103.2.211] POST: http://gps.0-one.net:8080/gprmc/Data acct=admin&dev=test01&gprmc=$GPRMC,022319,A,5134.1779,N,00006.7818,E,000.0,000.0,061211,,*18 [acct=admin&dev=test01&gprmc=$GPRMC,022319,A,5134.1779,N,00006.7818,E,000.0,000.0,061211,,*18]
[INFO_|12/06 03:23:24|Transport.loadDeviceByTransportID:1649] Located Device 'admin/test01' (using default Device transport)
[INFO_|12/06 03:23:24|EventData.updateAddress:1920] [Account 'admin'] PrivateLabel '*' does not define a ReverseGeocodeProvider
[INFO_|12/06 03:25:24|Data.logInfo:1077] gprmc: [77.103.2.211] POST: http://gps.0-one.net:8080/gprmc/Data acct=admin&dev=test01&gprmc=$GPRMC,022519,A,5134.1761,N,00006.7782,E,000.0,000.0,061211,,*1b [acct=admin&dev=test01&gprmc=$GPRMC,022519,A,5134.1761,N,00006.7782,E,000.0,000.0,061211,,*1b]
[INFO_|12/06 03:25:24|Transport.loadDeviceByTransportID:1649] Located Device 'admin/test01' (using default Device transport)
[INFO_|12/06 03:25:24|EventData.updateAddress:1920] [Account 'admin'] PrivateLabel '*' does not define a ReverseGeocodeProvider
[INFO_|12/06 03:27:24|Data.logInfo:1077] gprmc: [77.103.2.211] POST: http://gps.0-one.net:8080/gprmc/Data acct=admin&dev=test01&gprmc=$GPRMC,022719,A,5134.177,N,00006.7787,E,000.0,000.0,061211,,*2c [dev=test01&gprmc=$GPRMC,022719,A,5134.177,N,00006.7787,E,000.0,000.0,061211,,*2c&acct=admin]
[INFO_|12/06 03:27:24|Transport.loadDeviceByTransportID:1649] Located Device 'admin/test01' (using default Device transport)
[INFO_|12/06 03:27:24|EventData.updateAddress:1920] [Account 'admin'] PrivateLabel '*' does not define a ReverseGeocodeProvider
[INFO_|12/06 03:29:24|Data.logInfo:1077] gprmc: [77.103.2.211] POST: http://gps.0-one.net:8080/gprmc/Data acct=admin&dev=test01&gprmc=$GPRMC,022919,A,5134.177,N,00006.7787,E,000.0,000.0,061211,,*22 [dev=test01&gprmc=$GPRMC,022919,A,5134.177,N,00006.7787,E,000.0,000.0,061211,,*22&acct=admin]
[INFO_|12/06 03:29:24|Transport.loadDeviceByTransportID:1649] Located Device 'admin/test01' (using default Device transport)
[INFO_|12/06 03:29:24|EventData.updateAddress:1920] [Account 'admin'] PrivateLabel '*' does not define a ReverseGeocodeProvider
[INFO_|12/06 03:31:24|Data.logInfo:1077] gprmc: [77.103.2.211] POST: http://gps.0-one.net:8080/gprmc/Data acct=admin&dev=test01&gprmc=$GPRMC,023119,A,5134.177,N,00006.7787,E,000.0,000.0,061211,,*2b [acct=admin&dev=test01&gprmc=$GPRMC,023119,A,5134.177,N,00006.7787,E,000.0,000.0,061211,,*2b]
[INFO_|12/06 03:31:24|Transport.loadDeviceByTransportID:1649] Located Device 'admin/test01' (using default Device transport)
[INFO_|12/06 03:31:24|EventData.updateAddress:1920] [Account 'admin'] PrivateLabel '*' does not define a ReverseGeocodeProvider
[INFO_|12/06 03:33:24|Data.logInfo:1077] gprmc: [77.103.2.211] POST: http://gps.0-one.net:8080/gprmc/Data acct=admin&dev=test01&gprmc=$GPRMC,023319,A,5134.1779,N,00006.7817,E,000.0,000.0,061211,,*16 [dev=test01&gprmc=$GPRMC,023319,A,5134.1779,N,00006.7817,E,000.0,000.0,061211,,*16&acct=admin]
[INFO_|12/06 03:33:24|Transport.loadDeviceByTransportID:1649] Located Device 'admin/test01' (using default Device transport)
[INFO_|12/06 03:33:24|EventData.updateAddress:1920] [Account 'admin'] PrivateLabel '*' does not define a ReverseGeocodeProvider
[INFO_|12/06 03:35:24|Data.logInfo:1077] gprmc: [77.103.2.211] POST: http://gps.0-one.net:8080/gprmc/Data acct=admin&dev=test01&gprmc=$GPRMC,023519,A,5134.177,N,00006.7787,E,000.0,000.0,061211,,*2f [acct=admin&dev=test01&gprmc=$GPRMC,023519,A,5134.177,N,00006.7787,E,000.0,000.0,061211,,*2f]
[INFO_|12/06 03:35:24|Transport.loadDeviceByTransportID:1649] Located Device 'admin/test01' (using default Device transport)
[INFO_|12/06 03:35:24|EventData.updateAddress:1920] [Account 'admin'] PrivateLabel '*' does not define a ReverseGeocodeProvider
[INFO_|12/06 03:37:25|Data.logInfo:1077] gprmc: [77.103.2.211] POST: http://gps.0-one.net:8080/gprmc/Data acct=admin&dev=test01&gprmc=$GPRMC,023719,A,5134.1768,N,00006.7801,E,000.0,000.0,061211,,*15 [acct=admin&dev=test01&gprmc=$GPRMC,023719,A,5134.1768,N,00006.7801,E,000.0,000.0,061211,,*15]
[INFO_|12/06 03:37:25|Transport.loadDeviceByTransportID:1649] Located Device 'admin/test01' (using default Device transport)
[INFO_|12/06 03:37:25|EventData.updateAddress:1920] [Account 'admin'] PrivateLabel '*' does not define a ReverseGeocodeProvider
[INFO_|12/06 03:39:24|Data.logInfo:1077] gprmc: [77.103.2.211] POST: http://gps.0-one.net:8080/gprmc/Data acct=admin&dev=test01&gprmc=$GPRMC,023919,A,5134.1764,N,00006.7818,E,000.0,000.0,061211,,*1f [acct=admin&dev=test01&gprmc=$GPRMC,023919,A,5134.1764,N,00006.7818,E,000.0,000.0,061211,,*1f]
[INFO_|12/06 03:39:24|Transport.loadDeviceByTransportID:1649] Located Device 'admin/test01' (using default Device transport)
[INFO_|12/06 03:39:24|EventData.updateAddress:1920] [Account 'admin'] PrivateLabel '*' does not define a ReverseGeocodeProvider
[INFO_|12/06 03:41:25|Data.logInfo:1077] gprmc: [77.103.2.211] POST: http://gps.0-one.net:8080/gprmc/Data acct=admin&dev=test01&gprmc=$GPRMC,024119,A,5134.1752,N,00006.7772,E,000.0,000.0,061211,,*16 [dev=test01&gprmc=$GPRMC,024119,A,5134.1752,N,00006.7772,E,000.0,000.0,061211,,*16&acct=admin]
[INFO_|12/06 03:41:25|Transport.loadDeviceByTransportID:1649] Located Device 'admin/test01' (using default Device transport)
[INFO_|12/06 03:41:25|EventData.updateAddress:1920] [Account 'admin'] PrivateLabel '*' does not define a ReverseGeocodeProvider
[INFO_|12/06 03:43:25|Data.logInfo:1077] gprmc: [77.103.2.211] POST: http://gps.0-one.net:8080/gprmc/Data acct=admin&dev=test01&gprmc=$GPRMC,024319,A,5134.1755,N,00006.7788,E,000.0,000.0,061211,,*16 [dev=test01&gprmc=$GPRMC,024319,A,5134.1755,N,00006.7788,E,000.0,000.0,061211,,*16&acct=admin]
[INFO_|12/06 03:43:25|Transport.loadDeviceByTransportID:1649] Located Device 'admin/test01' (using default Device transport)
[INFO_|12/06 03:43:25|EventData.updateAddress:1920] [Account 'admin'] PrivateLabel '*' does not define a ReverseGeocodeProvider
[INFO_|12/06 03:45:25|Data.logInfo:1077] gprmc: [77.103.2.211] POST: http://gps.0-one.net:8080/gprmc/Data acct=admin&dev=test01&gprmc=$GPRMC,024519,A,5134.1785,N,00006.7817,E,000.0,000.0,061211,,*14 [acct=admin&dev=test01&gprmc=$GPRMC,024519,A,5134.1785,N,00006.7817,E,000.0,000.0,061211,,*14]
[INFO_|12/06 03:45:25|Transport.loadDeviceByTransportID:1649] Located Device 'admin/test01' (using default Device transport)
[INFO_|12/06 03:45:25|EventData.updateAddress:1920] [Account 'admin'] PrivateLabel '*' does not define a ReverseGeocodeProvider
[INFO_|12/06 03:47:25|Data.logInfo:1077] gprmc: [77.103.2.211] POST: http://gps.0-one.net:8080/gprmc/Data acct=admin&dev=test01&gprmc=$GPRMC,024719,A,5134.1764,N,00006.7803,E,000.0,000.0,061211,,*1c [dev=test01&gprmc=$GPRMC,024719,A,5134.1764,N,00006.7803,E,000.0,000.0,061211,,*1c&acct=admin]
[INFO_|12/06 03:47:25|Transport.loadDeviceByTransportID:1649] Located Device 'admin/test01' (using default Device transport)
[INFO_|12/06 03:47:25|EventData.updateAddress:1920] [Account 'admin'] PrivateLabel '*' does not define a ReverseGeocodeProvider
[INFO_|12/06 03:49:25|Data.logInfo:1077] gprmc: [77.103.2.211] POST: http://gps.0-one.net:8080/gprmc/Data acct=admin&dev=test01&gprmc=$GPRMC,024919,A,5134.1773,N,00006.7796,E,000.0,000.0,061211,,*17 [acct=admin&dev=test01&gprmc=$GPRMC,024919,A,5134.1773,N,00006.7796,E,000.0,000.0,061211,,*17]
[INFO_|12/06 03:49:25|Transport.loadDeviceByTransportID:1649] Located Device 'admin/test01' (using default Device transport)
[INFO_|12/06 03:49:25|EventData.updateAddress:1920] [Account 'admin'] PrivateLabel '*' does not define a ReverseGeocodeProvider
[INFO_|12/06 03:51:25|Data.logInfo:1077] gprmc: [77.103.2.211] POST: http://gps.0-one.net:8080/gprmc/Data acct=admin&dev=test01&gprmc=$GPRMC,025119,A,5134.1785,N,00006.7817,E,000.0,000.0,061211,,*11 [acct=admin&dev=test01&gprmc=$GPRMC,025119,A,5134.1785,N,00006.7817,E,000.0,000.0,061211,,*11]
[INFO_|12/06 03:51:25|Transport.loadDeviceByTransportID:1649] Located Device 'admin/test01' (using default Device transport)
[INFO_|12/06 03:51:25|EventData.updateAddress:1920] [Account 'admin'] PrivateLabel '*' does not define a ReverseGeocodeProvider
[INFO_|12/06 03:53:25|Data.logInfo:1077] gprmc: [77.103.2.211] POST: http://gps.0-one.net:8080/gprmc/Data acct=admin&dev=test01&gprmc=$GPRMC,025320,A,5134.177,N,00006.7787,E,000.0,000.0,061211,,*25 [acct=admin&dev=test01&gprmc=$GPRMC,025320,A,5134.177,N,00006.7787,E,000.0,000.0,061211,,*25]
[INFO_|12/06 03:53:25|Transport.loadDeviceByTransportID:1649] Located Device 'admin/test01' (using default Device transport)
[INFO_|12/06 03:53:25|EventData.updateAddress:1920] [Account 'admin'] PrivateLabel '*' does not define a ReverseGeocodeProvider
[INFO_|12/06 03:55:25|Data.logInfo:1077] gprmc: [77.103.2.211] POST: http://gps.0-one.net:8080/gprmc/Data acct=admin&dev=test01&gprmc=$GPRMC,025520,A,5134.1785,N,00006.7817,E,000.0,000.0,061211,,*1f [dev=test01&gprmc=$GPRMC,025520,A,5134.1785,N,00006.7817,E,000.0,000.0,061211,,*1f&acct=admin]
[INFO_|12/06 03:55:25|Transport.loadDeviceByTransportID:1649] Located Device 'admin/test01' (using default Device transport)
[INFO_|12/06 03:55:25|EventData.updateAddress:1920] [Account 'admin'] PrivateLabel '*' does not define a ReverseGeocodeProvider
[INFO_|12/06 03:57:25|Data.logInfo:1077] gprmc: [77.103.2.211] POST: http://gps.0-one.net:8080/gprmc/Data acct=admin&dev=test01&gprmc=$GPRMC,025720,A,5134.1785,N,00006.7817,E,000.0,000.0,061211,,*1d [dev=test01&gprmc=$GPRMC,025720,A,5134.1785,N,00006.7817,E,000.0,000.0,061211,,*1d&acct=admin]
[INFO_|12/06 03:57:25|Transport.loadDeviceByTransportID:1649] Located Device 'admin/test01' (using default Device transport)
[INFO_|12/06 03:57:25|EventData.updateAddress:1920] [Account 'admin'] PrivateLabel '*' does not define a ReverseGeocodeProvider
[INFO_|12/06 03:59:25|Data.logInfo:1077] gprmc: [77.103.2.211] POST: http://gps.0-one.net:8080/gprmc/Data acct=admin&dev=test01&gprmc=$GPRMC,025920,A,5134.1785,N,00006.7817,E,000.0,000.0,061211,,*13 [acct=admin&dev=test01&gprmc=$GPRMC,025920,A,5134.1785,N,00006.7817,E,000.0,000.0,061211,,*13]
[INFO_|12/06 03:59:25|Transport.loadDeviceByTransportID:1649] Located Device 'admin/test01' (using default Device transport)
[INFO_|12/06 03:59:25|EventData.updateAddress:1920] [Account 'admin'] PrivateLabel '*' does not define a ReverseGeocodeProvider
[INFO_|12/06 04:01:25|Data.logInfo:1077] gprmc: [77.103.2.211] POST: http://gps.0-one.net:8080/gprmc/Data acct=admin&dev=test01&gprmc=$GPRMC,030120,A,5134.177,N,00006.7787,E,000.0,000.0,061211,,*23 [dev=test01&gprmc=$GPRMC,030120,A,5134.177,N,00006.7787,E,000.0,000.0,061211,,*23&acct=admin]
[INFO_|12/06 04:01:25|Transport.loadDeviceByTransportID:1649] Located Device 'admin/test01' (using default Device transport)
[INFO_|12/06 04:01:25|EventData.updateAddress:1920] [Account 'admin'] PrivateLabel '*' does not define a ReverseGeocodeProvider
[INFO_|12/06 04:03:25|Data.logInfo:1077] gprmc: [77.103.2.211] POST: http://gps.0-one.net:8080/gprmc/Data acct=admin&dev=test01&gprmc=$GPRMC,030320,A,5134.177,N,00006.7787,E,000.0,000.0,061211,,*21 [acct=admin&dev=test01&gprmc=$GPRMC,030320,A,5134.177,N,00006.7787,E,000.0,000.0,061211,,*21]
[INFO_|12/06 04:03:25|Transport.loadDeviceByTransportID:1649] Located Device 'admin/test01' (using default Device transport)
[INFO_|12/06 04:03:25|EventData.updateAddress:1920] [Account 'admin'] PrivateLabel '*' does not define a ReverseGeocodeProvider
[INFO_|12/06 04:05:25|Data.logInfo:1077] gprmc: [77.103.2.211] POST: http://gps.0-one.net:8080/gprmc/Data acct=admin&dev=test01&gprmc=$GPRMC,030520,A,5134.1765,N,00006.7791,E,000.0,000.0,061211,,*14 [acct=admin&dev=test01&gprmc=$GPRMC,030520,A,5134.1765,N,00006.7791,E,000.0,000.0,061211,,*14]
[INFO_|12/06 04:05:25|Transport.loadDeviceByTransportID:1649] Located Device 'admin/test01' (using default Device transport)
[INFO_|12/06 04:05:25|EventData.updateAddress:1920] [Account 'admin'] PrivateLabel '*' does not define a ReverseGeocodeProvider
[INFO_|12/06 04:07:25|Data.logInfo:1077] gprmc: [77.103.2.211] POST: http://gps.0-one.net:8080/gprmc/Data acct=admin&dev=test01&gprmc=$GPRMC,030720,A,5134.1785,N,00006.7817,E,000.0,000.0,061211,,*19 [acct=admin&dev=test01&gprmc=$GPRMC,030720,A,5134.1785,N,00006.7817,E,000.0,000.0,061211,,*19]
[INFO_|12/06 04:07:25|Transport.loadDeviceByTransportID:1649] Located Device 'admin/test01' (using default Device transport)
[INFO_|12/06 04:07:25|EventData.updateAddress:1920] [Account 'admin'] PrivateLabel '*' does not define a ReverseGeocodeProvider
[INFO_|12/06 04:09:25|Data.logInfo:1077] gprmc: [77.103.2.211] POST: http://gps.0-one.net:8080/gprmc/Data acct=admin&dev=test01&gprmc=$GPRMC,030920,A,5134.1785,N,00006.7817,E,000.0,000.0,061211,,*17 [dev=test01&gprmc=$GPRMC,030920,A,5134.1785,N,00006.7817,E,000.0,000.0,061211,,*17&acct=admin]
[INFO_|12/06 04:09:25|Transport.loadDeviceByTransportID:1649] Located Device 'admin/test01' (using default Device transport)
[INFO_|12/06 04:09:25|EventData.updateAddress:1920] [Account 'admin'] PrivateLabel '*' does not define a ReverseGeocodeProvider
[INFO_|12/06 04:11:25|Data.logInfo:1077] gprmc: [77.103.2.211] POST: http://gps.0-one.net:8080/gprmc/Data acct=admin&dev=test01&gprmc=$GPRMC,031120,A,5134.1779,N,00006.7818,E,000.0,000.0,061211,,*12 [dev=test01&gprmc=$GPRMC,031120,A,5134.1779,N,00006.7818,E,000.0,000.0,061211,,*12&acct=admin]
[INFO_|12/06 04:11:25|Transport.loadDeviceByTransportID:1649] Located Device 'admin/test01' (using default Device transport)
[INFO_|12/06 04:11:25|EventData.updateAddress:1920] [Account 'admin'] PrivateLabel '*' does not define a ReverseGeocodeProvider
[INFO_|12/06 04:13:25|Data.logInfo:1077] gprmc: [77.103.2.211] POST: http://gps.0-one.net:8080/gprmc/Data acct=admin&dev=test01&gprmc=$GPRMC,031320,A,5134.1785,N,00006.7817,E,000.0,000.0,061211,,*1c [acct=admin&dev=test01&gprmc=$GPRMC,031320,A,5134.1785,N,00006.7817,E,000.0,000.0,061211,,*1c]
[INFO_|12/06 04:13:25|Transport.loadDeviceByTransportID:1649] Located Device 'admin/test01' (using default Device transport)
[INFO_|12/06 04:13:25|EventData.updateAddress:1920] [Account 'admin'] PrivateLabel '*' does not define a ReverseGeocodeProvider
[INFO_|12/06 04:15:25|Data.logInfo:1077] gprmc: [77.103.2.211] POST: http://gps.0-one.net:8080/gprmc/Data acct=admin&dev=test01&gprmc=$GPRMC,031520,A,5134.1768,N,00006.7801,E,000.0,000.0,061211,,*1e [dev=test01&gprmc=$GPRMC,031520,A,5134.1768,N,00006.7801,E,000.0,000.0,061211,,*1e&acct=admin]
[INFO_|12/06 04:15:25|Transport.loadDeviceByTransportID:1649] Located Device 'admin/test01' (using default Device transport)
